{"pageProps":{"villages":[{"Province":"Oriental  Mindoro","lon":"121.428938","Municipality":"Pola","lat":"13.223834","Association":"Mangyan Tribong Tadyawan Ng Misong Farmers Association (MTTMFA)","Barangay":"Misong"},{"Barangay":"Puting Cacao","lon":"121.424789","lat":"13.189113","Province":"Oriental  Mindoro","Municipality":"Pola","Association":"Samahang Masipag Ng Mangyan Tadyawan Ng Sta. Rita Farmers Association ( SMMTSFA)"},{"Province":"Oriental  Mindoro","Municipality":"Pola","lon":"121.435365","lat":"13.131572","Association":"Samahang Mangyan Tadyawan ng Calatagan Farmers Association (SMTCFA)","Barangay":"Calatagan"},{"lat":"13.207787","Municipality":"Pola","Barangay":"Tagumpay","Province":"Oriental  Mindoro","lon":"121.420171","Association":"Nagkakaisang Samahan Ng Mangyan Tadyawan ng Bakyaan Farmers Association (NSMTBFA)"},{"Association":"Karabanan sa Pangabuhi Farmers Association (KapFA)","lat":"12.500519","lon":"121.404463","Province":"Oriental  Mindoro","Municipality":"Mansalay","Barangay":"Panaytayan"},{"Municipality":"Mansalay","Association":"Karabanan sa Pangabuhi Farmers Association (KapFA)","Province":"Oriental  Mindoro","lon":"121.435296","lat":"12.489723","Barangay":"Cabalwa"},{"lon":"121.379686","Province":"Oriental  Mindoro","Municipality":"Bulalacao","Barangay":"San Juan","Association":"San Juan San Roque Livelihood Farmers Association (SJSRLFA)","lat":"12.356432"},{"Association":"San Juan San Roque Livelihood Farmers Association (SJSRLFA)","lon":"121.397783","lat":"12.394013","Province":"Oriental  Mindoro","Barangay":"San Roque","Municipality":"Bulalacao"},{"Municipality":"Bulalacao","Barangay":"Benli","Association":"Benli Tribal Farmers Association (BeTriFA)","Province":"Oriental  Mindoro","lat":"12.427243","lon":"121.315707"},{"lat":"13.219525","lon":"121.97222","Association":"Binunga/Yook Farmers Association (BYFA)","Province":"Marinduque","Municipality":"Buenavista","Barangay":"Yook"},{"Municipality":"Buenavista","Association":"Tungib-Lipata Farmers Association (TLFA)","Barangay":"Tungib-Lipata","Province":"Marinduque","lon":"122.004306","lat":"13.204499"},{"lon":"121.996371","Province":"Marinduque","lat":"13.265397","Association":"Sihi Vegetable Growers Farmers Association (SVGFA)","Barangay":"Sihi","Municipality":"Buenavista"},{"Province":"Marinduque","lon":"121.974504","lat":"13.265882","Barangay":"Timbo","Association":"Timbo Farmers Association (TFA)","Municipality":"Buenavista"},{"Municipality":"Torrijos","lon":"122.039955","lat":"13.269905","Province":"Marinduque","Barangay":"Tigwi","Association":"Tigwi Farmer Irrigators Association (TFIA)"},{"lat":"13.340646","Municipality":"Torrijos","lon":"122.012518","Barangay":"Sibuyao","Province":"Marinduque","Association":"Sibuyao Kaagapay Farmers Association (SKFA)"},{"Province":"Palawan","Association":"Samahan ng mga Tagbanua sa Caruray Farmers Association (STCFA)","lon":"119.02372","Barangay":"Caruray","lat":"10.326482","Municipality":"San Vicente"},{"lat":"10.514629","lon":"119.476998","Association":"Maharlika Agrarian Reform Beneficiaries and Farmers Association (MARBFA)","Province":"Palawan","Barangay":"Dumarao","Municipality":"Roxas"},{"Municipality":"Roxas","Province":"Palawan","lat":"10.351119","Association":"Samahan ng Magsasaka ng Barangay Minara (SMBM)","lon":"119.364174","Barangay":"Minara"}],"provincesMunicipalities":[{"label":"Marinduque","id":0,"disabled":false,"municipalities":[{"label":"Boac","disabled":false,"id":0},{"disabled":false,"label":"Buenavista","id":1},{"id":2,"label":"Gasan","disabled":false},{"label":"Mogpog","id":3,"disabled":false},{"disabled":false,"label":"Santa Cruz","id":4},{"id":5,"label":"Torrijos","disabled":false}]},{"label":"Occidental Mindoro","id":1,"disabled":false,"municipalities":[{"label":"Abra de Ilog","disabled":false,"id":0},{"disabled":false,"id":1,"label":"Calintaan"},{"disabled":false,"label":"Looc","id":2},{"label":"Lubang","id":3,"disabled":false},{"disabled":false,"label":"Magsaysay","id":4},{"id":5,"disabled":false,"label":"Mamburao"},{"disabled":false,"label":"Paluan","id":6},{"disabled":false,"label":"Rizal","id":7},{"disabled":false,"id":8,"label":"Sablayan"},{"id":9,"disabled":false,"label":"San Jose"},{"id":10,"label":"Santa Cruz","disabled":false}]},{"id":2,"disabled":false,"label":"Oriental Mindoro","municipalities":[{"disabled":false,"id":0,"label":"Baco"},{"id":1,"label":"Bansud","disabled":false},{"disabled":false,"label":"Bongabong","id":2},{"label":"Bulalacao","id":3,"disabled":false},{"disabled":false,"id":4,"label":"Calapan City"},{"disabled":false,"label":"Gloria","id":5},{"label":"Mansalay","id":6,"disabled":false},{"id":7,"disabled":false,"label":"Naujan"},{"id":8,"disabled":false,"label":"Pinamalayan"},{"disabled":false,"label":"Pola","id":9},{"disabled":false,"label":"Puerto Galera","id":10},{"disabled":false,"label":"Roxas","id":11},{"id":12,"label":"San Teodoro","disabled":false},{"id":13,"label":"Socorro","disabled":false},{"disabled":false,"label":"Victoria","id":14}]},{"municipalities":[{"id":0,"label":"Aborlan","disabled":false},{"label":"Agutaya","disabled":false,"id":1},{"label":"Araceli","id":2,"disabled":false},{"id":3,"disabled":false,"label":"Balabac"},{"id":4,"disabled":false,"label":"Bataraza"},{"label":"Brooke's Point","disabled":false,"id":5},{"label":"Busuanga","id":6,"disabled":false},{"disabled":false,"id":7,"label":"Cagayancillo"},{"label":"Coron","disabled":false,"id":8},{"id":9,"disabled":false,"label":"Culion"},{"disabled":false,"label":"Cuyo","id":10},{"label":"Dumaran","id":11,"disabled":false},{"label":"El Nido","disabled":false,"id":12},{"disabled":false,"id":13,"label":"Linapacan"},{"id":14,"disabled":false,"label":"Magsaysay"},{"disabled":false,"label":"Narra","id":15},{"id":16,"label":"Puerto Princesa City","disabled":false},{"label":"Quezon","disabled":false,"id":17},{"disabled":false,"id":18,"label":"Rizal"},{"id":19,"label":"Roxas","disabled":false},{"disabled":false,"label":"San Vicente","id":20},{"id":21,"disabled":false,"label":"Sofronio Espanola"},{"label":"Taytay","id":22,"disabled":false}],"disabled":false,"id":3,"label":"Palawan"},{"id":4,"municipalities":[{"id":0,"label":"Alcantara","disabled":false},{"id":1,"disabled":false,"label":"Banton"},{"label":"Cajidiocan","id":2,"disabled":false},{"id":3,"disabled":false,"label":"Calatrava"},{"disabled":false,"id":4,"label":"Concepcion"},{"label":"Corcuera","disabled":false,"id":5},{"disabled":false,"id":6,"label":"Ferrol"},{"id":7,"disabled":false,"label":"Looc"},{"label":"Magdiwang","id":8,"disabled":false},{"id":9,"disabled":false,"label":"Odiongan"},{"id":10,"label":"Romblon","disabled":false},{"disabled":false,"label":"San Agustin","id":11},{"id":12,"disabled":false,"label":"San Andres"},{"disabled":false,"label":"San Fernando","id":13},{"id":14,"label":"San Jose","disabled":false},{"label":"Santa Fe","id":15,"disabled":false},{"disabled":false,"label":"Santa Maria","id":16}],"label":"Romblon","disabled":false}],"media":{"description":"Agro-Climatic Advisory Portal-Bicol (ACAP-BICOL) serves as a centralized hub for the development of Climate Information Services (CIS) in the Bicol Region. It contains relevant weather and climate information which can be used in developing tailored advisories and crop recommendations.","url":"https://firebasestorage.googleapis.com/v0/b/amia-cis-dev.appspot.com/o/media%2Fimages%2Fopengraph%2F1200x600%2Fog_home_1200.png?alt=media&token=51f9241c-45da-456e-9906-677c2f8fe93a","path":"https://acap-mimaropa.github.io"}},"__N_SSG":true}