{"pageProps":{"villages":[{"lon":"121.428938","Barangay":"Misong","Province":"Oriental  Mindoro","Municipality":"Pola","Association":"Mangyan Tribong Tadyawan Ng Misong Farmers Association (MTTMFA)","lat":"13.223834"},{"Barangay":"Puting Cacao","Association":"Samahang Masipag Ng Mangyan Tadyawan Ng Sta. Rita Farmers Association ( SMMTSFA)","lon":"121.424789","Province":"Oriental  Mindoro","Municipality":"Pola","lat":"13.189113"},{"Association":"Samahang Mangyan Tadyawan ng Calatagan Farmers Association (SMTCFA)","lat":"13.131572","Province":"Oriental  Mindoro","lon":"121.435365","Municipality":"Pola","Barangay":"Calatagan"},{"Province":"Oriental  Mindoro","Association":"Nagkakaisang Samahan Ng Mangyan Tadyawan ng Bakyaan Farmers Association (NSMTBFA)","lon":"121.420171","Municipality":"Pola","lat":"13.207787","Barangay":"Tagumpay"},{"lon":"121.404463","Barangay":"Panaytayan","Municipality":"Mansalay","Province":"Oriental  Mindoro","lat":"12.500519","Association":"Karabanan sa Pangabuhi Farmers Association (KapFA)"},{"Municipality":"Mansalay","Barangay":"Cabalwa","lat":"12.489723","lon":"121.435296","Province":"Oriental  Mindoro","Association":"Karabanan sa Pangabuhi Farmers Association (KapFA)"},{"Barangay":"San Juan","Association":"San Juan San Roque Livelihood Farmers Association (SJSRLFA)","Province":"Oriental  Mindoro","lon":"121.379686","Municipality":"Bulalacao","lat":"12.356432"},{"Barangay":"San Roque","Association":"San Juan San Roque Livelihood Farmers Association (SJSRLFA)","Municipality":"Bulalacao","lat":"12.394013","Province":"Oriental  Mindoro","lon":"121.397783"},{"Province":"Oriental  Mindoro","Association":"Benli Tribal Farmers Association (BeTriFA)","lon":"121.315707","Barangay":"Benli","Municipality":"Bulalacao","lat":"12.427243"},{"Province":"Marinduque","Association":"Binunga/Yook Farmers Association (BYFA)","lon":"121.97222","lat":"13.219525","Barangay":"Yook","Municipality":"Buenavista"},{"lon":"122.004306","Municipality":"Buenavista","Province":"Marinduque","lat":"13.204499","Barangay":"Tungib-Lipata","Association":"Tungib-Lipata Farmers Association (TLFA)"},{"lat":"13.265397","lon":"121.996371","Barangay":"Sihi","Association":"Sihi Vegetable Growers Farmers Association (SVGFA)","Municipality":"Buenavista","Province":"Marinduque"},{"Barangay":"Timbo","Association":"Timbo Farmers Association (TFA)","lat":"13.265882","Municipality":"Buenavista","lon":"121.974504","Province":"Marinduque"},{"lon":"122.039955","Province":"Marinduque","lat":"13.269905","Municipality":"Torrijos","Barangay":"Tigwi","Association":"Tigwi Farmer Irrigators Association (TFIA)"},{"Municipality":"Torrijos","Association":"Sibuyao Kaagapay Farmers Association (SKFA)","lat":"13.340646","Province":"Marinduque","Barangay":"Sibuyao","lon":"122.012518"},{"Barangay":"Caruray","Association":"Samahan ng mga Tagbanua sa Caruray Farmers Association (STCFA)","lat":"10.326482","lon":"119.02372","Province":"Palawan","Municipality":"San Vicente"},{"Province":"Palawan","Barangay":"Dumarao","Municipality":"Roxas","lon":"119.476998","lat":"10.514629","Association":"Maharlika Agrarian Reform Beneficiaries and Farmers Association (MARBFA)"},{"Association":"Samahan ng Magsasaka ng Barangay Minara (SMBM)","Municipality":"Roxas","lat":"10.351119","Province":"Palawan","Barangay":"Minara","lon":"119.364174"}],"provincesMunicipalities":[{"label":"Marinduque","municipalities":[{"label":"Boac","id":0,"disabled":false},{"id":1,"label":"Buenavista","disabled":false},{"disabled":false,"label":"Gasan","id":2},{"id":3,"disabled":false,"label":"Mogpog"},{"id":4,"label":"Santa Cruz","disabled":false},{"id":5,"label":"Torrijos","disabled":false}],"disabled":false,"id":0},{"label":"Occidental Mindoro","municipalities":[{"id":0,"label":"Abra De Ilog","disabled":true},{"disabled":false,"id":1,"label":"Calintaan"},{"id":2,"disabled":false,"label":"Looc"},{"label":"Lubang","disabled":false,"id":3},{"disabled":false,"id":4,"label":"Magsaysay"},{"id":5,"label":"Mamburao","disabled":false},{"id":6,"label":"Paluan","disabled":false},{"disabled":false,"label":"Rizal","id":7},{"id":8,"label":"Sablayan","disabled":false},{"id":9,"label":"San Jose","disabled":false},{"disabled":false,"id":10,"label":"Santa Cruz"},{"iscalendar":true,"id":11,"disabled":false,"label":"Abra de Ilog"}],"disabled":false,"id":1},{"disabled":false,"municipalities":[{"id":0,"disabled":false,"label":"Baco"},{"disabled":false,"id":1,"label":"Bansud"},{"disabled":false,"id":2,"label":"Bongabong"},{"label":"Bulalacao","disabled":false,"id":3},{"label":"City of Calapan","id":4,"disabled":true},{"disabled":false,"label":"Gloria","id":5},{"label":"Mansalay","disabled":false,"id":6},{"id":7,"disabled":false,"label":"Naujan"},{"disabled":false,"id":8,"label":"Pinamalayan"},{"label":"Pola","id":9,"disabled":false},{"label":"Puerto Galera","id":10,"disabled":false},{"id":11,"label":"Roxas","disabled":false},{"id":12,"label":"San Teodoro","disabled":false},{"disabled":false,"label":"Socorro","id":13},{"id":14,"label":"Victoria","disabled":false},{"iscalendar":true,"id":15,"disabled":false,"label":"Calapan City"}],"id":2,"label":"Oriental Mindoro"},{"disabled":false,"municipalities":[{"id":0,"disabled":false,"label":"Aborlan"},{"id":1,"label":"Agutaya","disabled":false},{"id":2,"label":"Araceli","disabled":false},{"disabled":false,"label":"Balabac","id":3},{"label":"Bataraza","id":4,"disabled":false},{"id":5,"label":"Brooke'S Point","disabled":true},{"label":"Busuanga","id":6,"disabled":false},{"label":"Cagayancillo","id":7,"disabled":false},{"id":8,"label":"City of Puerto Princesa","disabled":true},{"disabled":false,"id":9,"label":"Coron"},{"id":10,"disabled":false,"label":"Culion"},{"label":"Cuyo","id":11,"disabled":false},{"label":"Dr. Jose P. Rizal","disabled":true,"id":12},{"label":"Dumaran","disabled":false,"id":13},{"id":14,"disabled":false,"label":"El Nido"},{"label":"Kalayaan","id":15,"disabled":false},{"id":16,"label":"Linapacan","disabled":false},{"label":"Magsaysay","disabled":false,"id":17},{"disabled":false,"id":18,"label":"Narra"},{"label":"Quezon","id":19,"disabled":false},{"id":20,"label":"Roxas","disabled":false},{"label":"San Vicente","disabled":false,"id":21},{"disabled":true,"label":"Sofronio Espa├▒ola","id":22},{"label":"Taytay","disabled":false,"id":23},{"iscalendar":true,"id":24,"label":"Brooke's Point","disabled":false},{"id":25,"iscalendar":true,"label":"Sofronio Espanola","disabled":false},{"id":26,"label":"Puerto Princesa City","iscalendar":true,"disabled":false},{"disabled":false,"id":27,"iscalendar":true,"label":"Rizal"}],"label":"Palawan","id":3},{"id":4,"label":"Romblon","disabled":false,"municipalities":[{"label":"Alcantara","id":0,"disabled":false},{"id":1,"disabled":false,"label":"Banton"},{"id":2,"disabled":false,"label":"Cajidiocan"},{"disabled":false,"label":"Calatrava","id":3},{"id":4,"disabled":false,"label":"Concepcion"},{"disabled":false,"label":"Corcuera","id":5},{"id":6,"disabled":false,"label":"Ferrol"},{"label":"Looc","disabled":false,"id":7},{"id":8,"label":"Magdiwang","disabled":false},{"label":"Odiongan","id":9,"disabled":false},{"id":10,"label":"Romblon","disabled":false},{"disabled":false,"id":11,"label":"San Agustin"},{"disabled":false,"label":"San Andres","id":12},{"disabled":false,"label":"San Fernando","id":13},{"id":14,"label":"San Jose","disabled":false},{"label":"Santa Fe","disabled":false,"id":15},{"disabled":false,"label":"Santa Maria","id":16}]}],"media":{"description":"Agro-Climatic Advisory Portal-Bicol (ACAP-BICOL) serves as a centralized hub for the development of Climate Information Services (CIS) in the Bicol Region. It contains relevant weather and climate information which can be used in developing tailored advisories and crop recommendations.","url":"https://firebasestorage.googleapis.com/v0/b/amia-cis-dev.appspot.com/o/media%2Fimages%2Fopengraph%2F1200x600%2Fog_home_1200.png?alt=media&token=51f9241c-45da-456e-9906-677c2f8fe93a","path":"https://acap-mimaropa.github.io"}},"__N_SSG":true}